    [
    {"name":"West Lafayette","state":"IN","lat":40.4243,"lon":-86.9081},
    {"name":"New York","state":"NY","lat":40.7128,"lon":-74.006},
    {"name":"Los Angeles","state":"CA","lat":34.0522,"lon":-118.2437},
    {"name":"Chicago","state":"IL","lat":41.8781,"lon":-87.6298},
    {"name":"Houston","state":"TX","lat":29.7604,"lon":-95.3698},
    {"name":"Philadelphia","state":"PA","lat":39.9526,"lon":-75.1652},
    {"name":"Phoenix","state":"AZ","lat":33.4484,"lon":-112.074},
    {"name":"San Antonio","state":"TX","lat":29.4241,"lon":-98.4936},
    {"name":"San Diego","state":"CA","lat":32.7157,"lon":-117.1611},
    {"name":"Dallas","state":"TX","lat":32.7767,"lon":-96.797},
    {"name":"San Jose","state":"CA","lat":37.3382,"lon":-121.8863},
    {"name":"Austin","state":"TX","lat":30.2672,"lon":-97.7431},
    {"name":"Jacksonville","state":"FL","lat":30.3322,"lon":-81.6557},
    {"name":"Fort Worth","state":"TX","lat":32.7555,"lon":-97.3308},
    {"name":"Columbus","state":"OH","lat":39.9612,"lon":-82.9988},
    {"name":"Charlotte","state":"NC","lat":35.2271,"lon":-80.8431},
    {"name":"San Francisco","state":"CA","lat":37.7749,"lon":-122.4194},
    {"name":"Indianapolis","state":"IN","lat":39.7684,"lon":-86.1581},
    {"name":"Seattle","state":"WA","lat":47.6062,"lon":-122.3321},
    {"name":"Denver","state":"CO","lat":39.7392,"lon":-104.9903},
    {"name":"Washington","state":"DC","lat":38.9072,"lon":-77.0369},
    {"name":"Boston","state":"MA","lat":42.3601,"lon":-71.0589},
    {"name":"El Paso","state":"TX","lat":31.7619,"lon":-106.485},
    {"name":"Nashville","state":"TN","lat":36.1627,"lon":-86.7816},       
    {"name":"Detroit","state":"MI","lat":42.3314,"lon":-83.0458},
    {"name":"Oklahoma City","state":"OK","lat":35.4676,"lon":-97.5164},
    {"name":"Portland","state":"OR","lat":45.5051,"lon":-122.675},
    {"name":"Las Vegas","state":"NV","lat":36.1699,"lon":-115.1398},
    {"name":"Louisville","state":"KY","lat":38.2527,"lon":-85.7585},
    {"name":"Baltimore","state":"MD","lat":39.2904,"lon":-76.6122},
    {"name":"Milwaukee","state":"WI","lat":43.0389,"lon":-87.9065},
    {"name":"Albuquerque","state":"NM","lat":35.0844,"lon":-106.6504},
    {"name":"Tucson","state":"AZ","lat":32.2226,"lon":-110.9747},
    {"name":"Fresno","state":"CA","lat":36.7378,"lon":-119.7871},
    {"name":"Sacramento","state":"CA","lat":38.5816,"lon":-121.4944},
    {"name":"Long Beach","state":"CA","lat":33.7701,"lon":-118.1937}, 
    {"name":"Kansas City","state":"MO","lat":39.0997,"lon":-94.5786},
    {"name":"Mesa","state":"AZ","lat":33.4152,"lon":-111.8315},
    {"name":"Virginia Beach","state":"VA","lat":36.8529,"lon":-75.978},
    {"name":"Atlanta","state":"GA","lat":33.749,"lon":-84.388},
    {"name":"Colorado Springs","state":"CO","lat":38.8339,"lon":-104.8214},
    {"name":"Omaha","state":"NE","lat":41.2565,"lon":-95.9345},
    {"name":"Raleigh","state":"NC","lat":35.7796,"lon":-78.6389},
    {"name":"Miami","state":"FL","lat":25.7617,"lon":-80.1918},
    {"name":"Cleveland","state":"OH","lat":41.4995,"lon":-81.6954},
    {"name":"Tulsa","state":"OK","lat":36.1539,"lon":-95.9925},
    {"name":"Oakland","state":"CA","lat":37.8044,"lon":-122.2711},
    {"name":"Minneapolis","state":"MN","lat":44.9778,"lon":-93.2653},
    {"name":"Wichita","state":"KS","lat":37.6872,"lon":-97.3301},
    {"name":"New Orleans","state":"LA","lat":29.9511,"lon":-90.0715},
    {"name":"Arlington","state":"TX","lat":32.7357,"lon":-97.1081},
    {"name":"Bakersfield","state":"CA","lat":35.3733,"lon":-119.0187},
    {"name":"Tampa","state":"FL","lat":27.9506,"lon":-82.4572},
    {"name":"Honolulu","state":"HI","lat":21.3069,"lon":-157.8583},
    {"name":"Anaheim","state":"CA","lat":33.8366,"lon":-117.9143},
    {"name":"Santa Ana","state":"CA","lat":33.7455,"lon":-117.8677},
    {"name":"Corpus Christi","state":"TX","lat":27.8006,"lon":-97.3964},
    {"name":"Riverside","state":"CA","lat":33.9806,"lon":-117.3755},
    {"name":"St. Louis","state":"MO","lat":38.627,"lon":-90.1994},
    {"name":"Lexington","state":"KY","lat":38.0406,"lon":-84.5037},
    {"name":"Pittsburgh","state":"PA","lat":40.4406,"lon":-79.9959},
    {"name":"Anchorage","state":"AK","lat":61.2181,"lon":-149.9003},
    {"name":"Stockton","state":"CA","lat":37.9577,"lon":-121.2908},
    {"name":"Cincinnati","state":"OH","lat":39.1031,"lon":-84.512},
    {"name":"St. Paul","state":"MN","lat":44.9537,"lon":-93.090},
    {"name":"Toledo","state":"OH","lat":41.6639,"lon":-83.5552},
    {"name":"Greensboro","state":"NC","lat":36.0726,"lon":-79.791},
    {"name":"Newark","state":"NJ","lat":40.7357,"lon":-74.1724},
    {"name":"Plano","state":"TX","lat":33.0198,"lon":-96.6989},
    {"name":"Henderson","state":"NV","lat":36.0395,"lon":-114.9817},
    {"name":"Lincoln","state":"NE","lat":40.8136,"lon":-96.7026},
    {"name":"Buffalo","state":"NY","lat":42.8864,"lon":-78.8784},
    {"name":"Jersey City","state":"NJ","lat":40.7178,"lon":-74.0431},
    {"name":"Chula Vista","state":"CA","lat":32.6403,"lon":-117.0841},
    {"name":"Fort Wayne","state":"IN","lat":41.0793,"lon":-85.1394},
    {"name":"Orlando","state":"FL","lat":28.5383,"lon":-81.3792},
    {"name":"St. Petersburg","state":"FL","lat":27.7676,"lon":-82.6403},
    {"name":"Chandler","state":"AZ","lat":33.3062,"lon":-111.8413},
    {"name":"Laredo","state":"TX","lat":27.5064,"lon":-99.5075},
    {"name":"Madison","state":"WI","lat":43.0731,"lon":-89.4012},
    {"name":"Durham","state":"NC","lat":35.994,"lon":-78.8986},
    {"name":"Lubbock","state":"TX","lat":33.5779,"lon":-101.8552},
    {"name":"Garland","state":"TX","lat":32.9126,"lon":-96.6389},
    {"name":"Glendale","state":"AZ","lat":33.5387,"lon":-112.1859},
    {"name":"Reno","state":"NV","lat":39.5296,"lon":-119.8138},
    {"name":"Chesapeake","state":"VA","lat":36.7682,"lon":-76.2875},
    {"name":"Gilbert","state":"AZ","lat":33.3528,"lon":-111.789},
    {"name":"Baton Rouge","state":"LA","lat":30.4515,"lon":-91.1874},
    {"name":"Irving","state":"TX","lat":32.814,"lon":-96.9489},
    {"name":"Scottsdale","state":"AZ","lat":33.4942,"lon":-111.9261},
    {"name":"North Las Vegas","state":"NV","lat":36.1989,"lon":-115.1175},
    {"name":"Fremont","state":"CA","lat":37.5483,"lon":-121.9886},
    {"name":"Boise City","state":"ID","lat":43.615,"lon":-116.2023},
    {"name":"Richmond","state":"VA","lat":37.5407,"lon":-77.436},
    {"name":"San Bernardino","state":"CA","lat":34.1083,"lon":-117.2898},
    {"name":"Birmingham","state":"AL","lat":33.5207,"lon":-86.8025},
    {"name":"Spokane","state":"WA","lat":47.6586,"lon":-117.426},
    {"name":"Rochester","state":"NY","lat":43.1610,"lon":-77.6109},
    {"name":"Des Moines","state":"IA","lat":41.5868,"lon":-93.625},
    {"name":"Modesto","state":"CA","lat":37.6391,"lon":-120.9969},
    {"name":"Fayetteville","state":"NC","lat":35.0527,"lon":-78.8784},
    {"name":"Tacoma","state":"WA","lat":47.2529,"lon":-122.4443},
    {"name":"Shreveport","state":"LA","lat":32.5252,"lon":-93.7502},
    {"name":"Fontana","state":"CA","lat":34.0922,"lon":-117.435},
    {"name":"Oxnard","state":"CA","lat":34.1975,"lon":-119.1771},
    {"name":"Moreno Valley","state":"CA","lat":33.9425,"lon":-117.2296},
    {"name":"Huntington Beach","state":"CA","lat":33.6595,"lon":-117.9982},
    {"name":"Aurora","state":"CO","lat":39.7294,"lon":-104.8319},
    {"name":"Glendale","state":"CA","lat":34.1425,"lon":-118.2551},
    {"name":"Yonkers","state":"NY","lat":40.9312,"lon":-73.8988},
    {"name":"Montgomery","state":"AL","lat":32.3615,"lon":-86.2791},
    {"name":"Akron","state":"OH","lat":41.0814,"lon":-81.519},
    {"name":"Little Rock","state":"AR","lat":34.7465,"lon":-92.2896},
    {"name":"Augusta-Richmond County","state":"GA","lat":33.4735,"lon":-82.0105},
    {"name":"Port St. Lucie","state":"FL","lat":27.2730,"lon":-80.3582},
    {"name":"Grand Rapids","state":"MI","lat":42.9634,"lon":-85.6681},
    {"name":"Salt Lake City","state":"UT","lat":40.7608,"lon":-111.8910},
    {"name":"Tallahassee","state":"FL","lat":30.4383,"lon":-84.2807},
    {"name":"Huntsville","state":"AL","lat":34.7304,"lon":-86.5861},
    {"name":"Grand Prairie","state":"TX","lat":32.7459,"lon":-96.9978},
    {"name":"Knoxville","state":"TN","lat":35.9606,"lon":-83.9207},
    {"name":"Worcester","state":"MA","lat":42.2626,"lon":-71.8022},
    {"name":"Newport News","state":"VA","lat":36.9783,"lon":-76.4324},
    {"name":"Brownsville","state":"TX","lat":25.9017,"lon":-97.4975},
    {"name":"Overland Park","state":"KS","lat":38.9822,"lon":-94.6708},
    {"name":"Santa Clarita","state":"CA","lat":34.3917,"lon":-118.5426},
    {"name":"Providence","state":"RI","lat":41.8240,"lon":-71.4128},
    {"name":"Garden Grove","state":"CA","lat":33.7739,"lon":-117.9415},
    {"name":"Chattanooga","state":"TN","lat":35.0456,"lon":-85.3097},
    {"name":"Oceanside","state":"CA","lat":33.1959,"lon":-117.3795},
    {"name":"Jackson","state":"MS","lat":32.2988,"lon":-90.1848},
    {"name":"Fort Lauderdale","state":"FL","lat":26.1224,"lon":-80.1373},
    {"name":"Santa Rosa","state":"CA","lat":38.4405,"lon":-122.7141},
    {"name":"Rancho Cucamonga","state":"CA","lat":34.1064,"lon":-117.5931},
    {"name":"Portland","state":"ME","lat":43.6615,"lon":-70.2553},
    {"name":"Ontario","state":"CA","lat":34.0633,"lon":-117.6509},
    {"name":"Lancaster","state":"CA","lat":34.6868,"lon":-118.1542},
    {"name":"Vancouver","state":"WA","lat":45.6387,"lon":-122.6615},
    {"name":"Tempe","state":"AZ","lat":33.4255,"lon":-111.9400},
    {"name":"Springfield","state":"MO","lat":37.2089,"lon":-93.2923},
    {"name":"Salem","state":"OR","lat":44.9429,"lon":-123.0351},
    {"name":"Cape Coral","state":"FL","lat":26.5629,"lon":-81.9495},
    {"name":"Peoria","state":"AZ","lat":33.5806,"lon":-112.2374},
    {"name":"Sioux Falls","state":"SD","lat":43.5446,"lon":-96.7311},
    {"name":"Springfield","state":"MA","lat":42.1015,"lon":-72.5898},
    {"name":"Elk Grove","state":"CA","lat":38.4088,"lon":-121.3716},
    {"name":"Pembroke Pines","state":"FL","lat":26.0078,"lon":-80.3217},
    {"name":"Salinas","state":"CA","lat":36.6777,"lon":-121.6555},
    {"name":"Eugene","state":"OR","lat":44.0521,"lon":-123.0868},
    {"name":"Cary","state":"NC","lat":35.7915,"lon":-78.7811},
    {"name":"Fort Collins","state":"CO","lat":40.5853,"lon":-105.0844},
    {"name":"Lancaster","state":"PA","lat":40.0379,"lon":-76.3055},
    {"name":"Hayward","state":"CA","lat":37.6688,"lon":-122.0808},
    {"name":"Palmdale","state":"CA","lat":34.5794,"lon":-118.1165},
    {"name":"Salem","state":"MA","lat":42.5195,"lon":-70.8967},
    {"name":"Springfield","state":"IL","lat":39.7817,"lon":-89.6501},
    {"name":"Pasadena","state":"CA","lat":34.1478,"lon":-118.1445},
    {"name":"Sunnyvale","state":"CA","lat":37.3688,"lon":-122.0363},
    {"name":"Pomona","state":"CA","lat":34.0551,"lon":-117.7497},
    {"name":"Escondido","state":"CA","lat":33.1192,"lon":-117.0864},
    {"name":"Killeen","state":"TX","lat":31.1171,"lon":-97.7278},
    {"name":"Naperville","state":"IL","lat":41.7508,"lon":-88.1535},
    {"name":"Joliet","state":"IL","lat":41.5250,"lon":-88.0817},
    {"name":"Bellevue","state":"WA","lat":47.6104,"lon":-122.2007},
    {"name":"Miramar","state":"FL","lat":25.9861,"lon":-80.3036},
    {"name":"Mesquite","state":"TX","lat":32.7668,"lon":-96.5991},
    {"name":"Savannah","state":"GA","lat":32.0835,"lon":-81.0998},
    {"name":"Syracuse","state":"NY","lat":43.0481,"lon":-76.1474},
    {"name":"McKinney","state":"TX","lat":33.1975,"lon":-96.6153},
    {"name":"Pasadena","state":"TX","lat":29.6911,"lon":-95.2091},
    {"name":"Bellevue","state":"NE","lat":41.1542,"lon":-95.9146},
    {"name":"Midland","state":"TX","lat":31.9973,"lon":-102.0779},
    {"name":"Macon","state":"GA","lat":32.8407,"lon":-83.6324},
    {"name":"Kearny","state":"NJ","lat":40.7684,"lon":-74.1484},
    {"name":"Waterbury","state":"CT","lat":41.5582,"lon":-73.0515},
    {"name":"Chattanooga","state":"TN","lat":35.0456,"lon":-85.3097},
    {"name":"Waco","state":"TX","lat":31.5493,"lon":-97.1467},
    {"name":"Cedar Rapids","state":"IA","lat":41.9779,"lon":-91.6656},
    {"name":"Visalia","state":"CA","lat":36.3302,"lon":-119.2921},
    {"name":"Sterling Heights","state":"MI","lat":42.5803,"lon":-83.0302},
    {"name":"Coral Springs","state":"FL","lat":26.2712,"lon":-80.2706},
    {"name":"New Haven","state":"CT","lat":41.3083,"lon":-72.9279},
    {"name":"Thousand Oaks","state":"CA","lat":34.1706,"lon":-118.8376},
    {"name":"Simi Valley","state":"CA","lat":34.2694,"lon":-118.7815},
    {"name":"Concord","state":"CA","lat":37.9779,"lon":-122.0311},
    {"name":"Hartford","state":"CT","lat":41.7658,"lon":-72.6734},
    {"name":"Elizabeth","state":"NJ","lat":40.66399,"lon":-74.2107},
    {"name":"Lafayette","state":"LA","lat":30.2241,"lon":-92.0198},
    {"name":"Kent","state":"WA","lat":47.3809,"lon":-122.2348},
    {"name":"Columbia","state":"SC","lat":34.0007,"lon":-81.0348},
    {"name":"Santa Clara","state":"CA","lat":37.3541,"lon":-121.9552},
    {"name":"El Monte","state":"CA","lat":34.0686,"lon":-118.0276},
    {"name":"Denton","state":"TX","lat":33.2148,"lon":-97.1331},
    {"name":"Wilmington","state":"NC","lat":34.2257,"lon":-77.9447},
    {"name":"Arvada","state":"CO","lat":39.8028,"lon":-105.0875},
    {"name":"Independence","state":"MO","lat":39.0911,"lon":-94.4155},
    {"name":"Provo","state":"UT","lat":40.2338,"lon":-111.6585},
    {"name":"Lansing","state":"MI","lat":42.7325,"lon":-84.5555},
    {"name":"Elgin","state":"IL","lat":42.0354,"lon":-88.2812},
    {"name":"Downey","state":"CA","lat":33.9401,"lon":-118.1326},
    {"name":"Costa Mesa","state":"CA","lat":33.6411,"lon":-117.9187},
    {"name":"Inglewood","state":"CA","lat":33.9617,"lon":-118.3531},
    {"name":"Miami Gardens","state":"FL","lat":25.9420,"lon":-80.2456},
    {"name":"Carrollton","state":"TX","lat":32.9756,"lon":-96.8903},
    {"name":"West Valley City","state":"UT","lat":40.6916,"lon":-112.0010},
    {"name":"Clearwater","state":"FL","lat":27.9659,"lon":-82.8001},
    {"name":"West Covina","state":"CA","lat":34.0686,"lon":-117.9380},
    {"name":"Fairfield","state":"CA","lat":38.2494,"lon":-122.0399},
    {"name":"Cambridge","state":"MA","lat":42.3736,"lon":-71.1097},
    {"name":"Billings","state":"MT","lat":45.7833,"lon":-108.5007},
    {"name":"West Jordan","state":"UT","lat":40.6097,"lon":-111.9391},
    {"name":"Richmond","state":"CA","lat":37.9358,"lon":-122.3478},
    {"name":"Murrieta","state":"CA","lat":33.5539,"lon":-117.2139},
    {"name":"Burbank","state":"CA","lat":34.1808,"lon":-118.3089},
    {"name":"Palm Bay","state":"FL","lat":28.0345,"lon":-80.5887},
    {"name":"Everett","state":"WA","lat":47.9789,"lon":-122.2021},
    {"name":"Wichita Falls","state":"TX","lat":33.9137,"lon":-98.4934},
    {"name":"Green Bay","state":"WI","lat":44.5192,"lon":-88.0198},
    {"name":"Daly City","state":"CA","lat":37.6879,"lon":-122.4702},
    {"name":"South Bend","state":"IN","lat":41.6764,"lon":-86.2519},
    {"name":"Sandy Springs","state":"GA","lat":33.9249,"lon":-84.3733},
    {"name":"Santa Maria","state":"CA","lat":34.9530,"lon":-120.4357},
    {"name":"Hillsboro","state":"OR","lat":45.5229,"lon":-122.9898},
    {"name":"El Cajon","state":"CA","lat":32.7948,"lon":-116.9625},
    {"name":"Davenport","state":"IA","lat":41.5236,"lon":-90.5776},
    {"name":"West Palm Beach","state":"FL","lat":26.7153,"lon":-80.0534},
    {"name":"Pueblo","state":"CO","lat":38.2544,"lon":-104.6091},
    {"name":"San Angelo","state":"TX","lat":31.4638,"lon":-100.4370},
    {"name":"Broken Arrow","state":"OK","lat":36.0526,"lon":-95.7907},
    {"name":"Boulder","state":"CO","lat":40.0150,"lon":-105.2705},
    {"name":"Gresham","state":"OR","lat":45.5002,"lon":-122.4300},
    {"name":"Dothan","state":"AL","lat":31.2232,"lon":-85.3905},
    {"name":"Sparks","state":"NV","lat":39.5349,"lon":-119.7527},
    {"name":"San Mateo","state":"CA","lat":37.5629,"lon":-122.3255},
    {"name":"Norwalk","state":"CA","lat":33.9022,"lon":-118.0817},
    {"name":"Bend","state":"OR","lat":44.0682,"lon":-121.3153},
    {"name":"San Marcos","state":"CA","lat":33.1434,"lon":-117.1661},
    {"name":"Wichita Falls","state":"TX","lat":33.9137,"lon":-98.4934},
    {"name":"Lakewood","state":"CO","lat":39.7047,"lon":-105.0814},
    {"name":"Bellingham","state":"WA","lat":48.7491,"lon":-122.4786},
    {"name":"Meridian","state":"ID","lat":43.6121,"lon":-116.3915},
    {"name":"Citrus Heights","state":"CA","lat":38.7071,"lon":-121.2816},
    {"name":"Santa Barbara","state":"CA","lat":34.4208,"lon":-119.6982},
    {"name":"Hesperia","state":"CA","lat":34.4264,"lon":-117.3009},
    {"name":"Chino Hills","state":"CA","lat":33.9930,"lon":-117.7322},
    {"name":"Alhambra","state":"CA","lat":34.0953,"lon":-118.1270},
    {"name":"Trenton","state":"NJ","lat":40.2171,"lon":-74.7429},
    {"name":"Carmel","state":"IN","lat":39.9784,"lon":-86.1180},
    {"name":"Vacaville","state":"CA","lat":38.3566,"lon":-121.9877},
    {"name":"Sandy","state":"UT","lat":40.5724,"lon":-111.8906},
    {"name":"San Leandro","state":"CA","lat":37.7249,"lon":-122.1561},
    {"name":"San Rafael","state":"CA","lat":37.9735,"lon":-122.5311},
    {"name":"Boca Raton","state":"FL","lat":26.3683,"lon":-80.1289},
    {"name":"Cedar Park","state":"TX","lat":30.5057,"lon":-97.8203},
    {"name":"San Clemente","state":"CA","lat":33.4269,"lon":-117.6114},
    {"name":"Hawthorne","state":"CA","lat":33.9166,"lon":-118.3526},
    {"name":"Lakewood","state":"WA","lat":47.1718,"lon":-122.5185},
    {"name":"Pompano Beach","state":"FL","lat":26.2379,"lon":-80.1248},
    {"name":"Dublin","state":"CA","lat":37.7022,"lon":-121.9358},
    {"name":"Wheaton","state":"IL","lat":41.8661,"lon":-88.1062},
    {"name":"San Marcos","state":"TX","lat":29.8833,"lon":-97.9414},
    {"name":"San Gabriel","state":"CA","lat":34.0961,"lon":-118.1058},
    {"name":"San Jacinto","state":"CA","lat":33.7825,"lon":-116.9581},
    {"name":"Cypress","state":"CA","lat":33.8162,"lon":-118.0373},
    {"name":"Brea","state":"CA","lat":33.9166,"lon":-117.9001},
    {"name":"Tustin","state":"CA","lat":33.7455,"lon":-117.8262},
    {"name":"Santee","state":"CA","lat":32.8384,"lon":-116.9739},
    {"name":"Lake Elsinore","state":"CA","lat":33.6681,"lon":-117.3272},
    {"name":"Rancho Cordova","state":"CA","lat":38.5890,"lon":-121.3022},
    {"name":"Culver City","state":"CA","lat":34.0211,"lon":-118.3965},
    {"name":"San Bruno","state":"CA","lat":37.6305,"lon":-122.4111},
    {"name":"Chino","state":"CA","lat":34.0122,"lon":-117.6885},
    {"name":"Cedar City","state":"UT","lat":37.6775,"lon":-113.0619},
    {"name":"Burlingame","state":"CA","lat":37.5736,"lon":-122.3287},
    {"name":"San Carlos","state":"CA","lat":37.5077,"lon":-122.2600},
    {"name":"La Habra","state":"CA","lat":33.9318,"lon":-117.9462},
    {"name":"San Dimas","state":"CA","lat":34.1064,"lon":-117.8103},
    {"name":"Lynwood","state":"CA","lat":33.9303,"lon":-118.2115},
    {"name":"Huntington Park","state":"CA","lat":33.9817,"lon":-118.2201},
    {"name":"Bellflower","state":"CA","lat":33.8817,"lon":-118.1170},
    {"name":"Gardena","state":"CA","lat":33.8901,"lon":-118.3089},
    {"name":"Montebello","state":"CA","lat":34.0165,"lon":-118.1131},
    {"name":"South Gate","state":"CA","lat":33.9547,"lon":-118.2120},
    {"name":"Downey","state":"TX","lat":32.6344,"lon":-96.9081},
    {"name":"Bell Gardens","state":"CA","lat":33.9653,"lon":-118.1516},
    {"name":"Cypress Gardens","state":"FL","lat":28.0652,"lon":-81.6535},
    {"name":"Westminster","state":"CA","lat":33.7590,"lon":-117.9819},
    {"name":"Aliso Viejo","state":"CA","lat":33.5678,"lon":-117.7280},
    {"name":"La Mesa","state":"CA","lat":32.7678,"lon":-117.0231},
    {"name":"San Fernando","state":"CA","lat":34.2813,"lon":-118.4392},
    {"name":"Cypress","state":"TX","lat":29.9692,"lon":-95.6932},
    {"name":"Cypress","state":"CA","lat":33.8162,"lon":-118.0373},
    {"name":"Cypress","state":"TX","lat":29.9692,"lon":-95.6932}
    ]
    